latitude,longitude,id,name,old_name,addr:housenumber,addr:street,siruta
44.3922259,26.1198188,129611083,SCOALA NR 190,,,,179178
46.217831,24.791413,202965818,LICEUL JOSEPH HALTRICH,,,,114523
46.2144903,24.7896432,203327682,,Liceul MIU,,,114523
46.221991,24.792364,203338431,RADU POPA,Generala 1,,,114523
46.220631,24.7925562,203358770,,,,,114523
46.2217416,24.7842873,203359574,,Generala 4,,,114523
46.2124606,24.7809807,203360412,OCTAVIAN GOGA,Generala 5,,,114523
46.2221037,24.7978262,203361639,,,,,114523
46.2222403,24.7986244,203365605,,,,,114523
46.2203179,24.7986097,203366422,,Generala 3,,,114523
46.2160285,24.7915658,206100735,GRUP SCOLAR AGRICOL,,,,114523
44.5604044,25.9442717,247642552,SCOALA NR 2,,,,100585
44.5601842,25.9449326,247642559,CLUBUL ELEVILOR,,,,100585
46.1671496,21.3142404,252246615,GRUP SCOLAR FRANCISC NEUMAN ARAD,,,,9271
46.1640737,21.3138373,252246828,,,,,9271
46.1682169,21.3117087,252246872,ACADEMIA TEOLOGICA,,,,9271
47.1209577,27.6254364,254040317,SCOALA GENERALA NR 2 VERONICA MICLE,,72,,95079
45.6526881,25.6140681,255679625,SCOALA GENERALA NR 8,,,,40205
46.187392,21.3292802,256115795,ARON COTRUS,,,,9271
46.1736832,21.3013953,256977659,SCOALA GENERALA 2,,,,9271
44.7183848,22.3975751,259199427,SCOALA GENERALA NR 2,,,,110072
45.649974,25.6002105,259528191,SCOALA GENERALA NR 5,,,,40205
45.429355,25.7507349,260603491,SCOALA GENERALA NR 1,,,,0
46.1887229,21.2996592,260664784,SCOALA GENERALA 8,,,,9271
46.2238482,23.9584765,260761944,SCOALA I IV,,,,7375
44.8969697,29.5940451,261729044,,,,,161240
45.4398625,25.2913909,262541551,SCOALA GENERALA,,,,41006
46.1886278,21.2980627,262884691,SCOALA GENERALA NR 8,,,,9271
46.1936171,21.3318,263894533,SCOALA GENERALA ARON COTRUS,,,,9271
46.1405356,21.3438314,265268897,,,,,9271
46.1589728,21.3257128,265356525,GENERALA NR 20,,,,9271
46.2164248,24.7927296,265452064,LICEUL MIU,,,,114523
45.7488612,22.8993746,267439955,SCOALA GENERALA NR 5,,19,Bulevardul Decebal,86829
44.4511825,26.123467,268246356,SCOALA NR 158,,,,179150
46.1763325,21.3605208,268339333,,,,,9271
46.1901405,21.3308655,268985827,SCOALA GENERALA ARON COTRUS,,,,9271
46.2036886,21.2826941,269253773,SCOALA GENERALA FRATII NEUMANN,,,,9271
46.1529096,21.307635,270328143,GENERALA NR 20,,,,9271
45.924629,25.8493826,271135997,SCOALA GENERALA 18,,,,0
44.4208153,26.614585,271285333,LICEUL ION BARBU,,,,0
44.4339606,26.743789,271720895,SCOALA NR 150 SFANTUL ELEFTERIE,,,,0
45.1261357,25.7347052,275139284,LICEUL NICOLAE GRIGORESCU,,,,131265
44.3331669,26.778532,275380718,SCOALA JILAVA,,,,0
45.847012,25.8644077,275541683,SCOALA BORDENI,,,,0
44.3781103,25.9421204,275592220,,,,,102044
44.4014674,25.9069226,275644567,SCOALA MARE,,,,102589
44.4027368,25.9030087,275644592,SCOALA MICA,,,,102589
45.7508228,22.9092874,277762725,SCOALA GENERALA NR 4,,,,86829
45.704391,24.1107014,297889587,,,,,143753
45.4335264,28.585203,298843856,SCOALA GENERALA NR 24,,,,0
45.6127881,25.6688992,303080036,,,,,40447
44.4579108,26.798257,303325511,COLEGIUL NATIONAL DE INFORMATICA TUDOR VIANU,,,,0
45.9010974,25.7756385,304602593,,,,,64924
45.1673239,25.5428359,304665454,,,,,66367
45.8987617,25.5375789,308400093,SCOALA GENERALA,,,,41391
44.4567448,26.3364387,308738489,SCOALA GIMNAZIALA NR 1 BRANESTI,,147,Strada Sublocotenent Petre Ionel,101305
44.1089448,24.3420473,311022944,SCOALA GENERALA NR 5 GHEORGHE MAGHERU CARACAL,,,,125481
45.7562326,22.9029345,316228226,SCOALA GENERALA NR 6,,1,Piata Florilor,86829
47.1732727,27.5694686,316394639,COLEGIUL NATIONAL COSTACHE NEGRUZZI,,,,95079
44.1173891,24.3539859,316480985,LICEUL IONITA ASAN,,,,125481
46.145817,22.3605182,317308796,,,,,0
47.1800929,27.6927157,318704395,,,,,95195
46.2207614,24.7929104,321978593,,,,,114523
47.1284529,24.4837443,324742979,SCOALA GENERALA NR 1,,,,32401
47.1071302,27.7154062,325917049,SCOALA GORUNI,,,,95328
46.2327464,24.8212992,329663566,ZAHARIA BOIU,,,,114523
47.1504572,27.5814881,335640850,LICEUL TEORETIC DIMITRIE CANTEMIR,,,Aleea Decebal,95079
47.1665508,27.5985132,336595894,SCOALA B P HASDEU,,,,95079
47.2408553,27.692146,336605034,SCOALA GOLAIESTI,,,,97107
47.1529632,27.5770813,339817078,SCOALA GENERALA NR 21 ION NECULCE,,,,95079
45.763113,22.9061234,343217111,SCOALA GENERALA NR 7,,7,Strada Moldova,86829
45.7654422,22.9072838,343217113,SCOALA GENERALA NR 8,,2,Strada Cerbului,86829
46.1820899,21.3289971,344315508,IULIU MANIU,,,,9271
45.6343186,25.6055025,353100900,SCOALA NR 25,,24,Bulevardul Valea Cetatii,40205
47.6450223,26.2507273,353194508,SCOALA GENERALA 3,,38,Strada Marasesti,146272
47.6413097,26.2389341,353210485,,,,,146272
45.759131,22.9058184,355216684,SCOALA GENERALA NR 1,,14,Bulevardul Ion Corvin,86829
45.7568589,22.9093512,358469494,SCOALA GENERALA NR 3,,,,86829
45.7644464,22.9131497,359096315,SCOALA GENERALA NR 2,,1,Strada Luncii,86829
45.7581609,22.9177145,359099990,SCOALA GENERALA NR 10,,6,Intrarea Spicului,86829
44.4186388,26.1706764,360027079,SCOALA GENERALA NR 200,,,,179169
47.3049711,24.3533372,364070465,,,,,34404
44.1106453,24.3503864,365326677,SCOALA GENERALA NR 2 CARACAL,,,,125481
44.1158449,24.3577463,365332449,SCOALA NR 6 CARACAL,,11,Strada Vasile Alecsandri,125481
47.1564819,27.5683549,366713186,SCOALA GENERALA NR 16 MIRCEA CEL BATRAN,,,,95079
46.9892602,28.538974,383428554,SCOALA GROZESTI,,,,0
47.8598567,26.6344122,385470156,SCOALA NICSENI,,,,38465
47.9256787,26.6560898,386612278,,,,,36729
47.8822879,26.6466076,386615604,SCOALA DOROBANTI,,,,38483
44.1089094,24.3541321,387262437,SCOALA GENERALA NR 7 CARACAL,,,,125481
47.8906282,26.7905293,388311145,SCOALA DE ARTE UNGURENI,,,,39499
48.190753,26.5103395,389980629,SCOALA DUMENI,,,,0
46.1766619,21.3193048,390341459,PALATUL COPIILOR,,,,9271
46.1779314,21.3109875,391814406,GRUP SCOLAR TRANSPORTURI AUTO HENRI COANDA,,,,9271
46.1466693,24.65053,394139131,SCOALA GENERALA,,,,0
45.7712315,27.6862119,411001109,,,,,76166
46.6348593,25.6351472,412264183,,,,,0
45.7959683,24.1553111,415560537,CENTRUL SCOLAR PENTRU EDUCATIE INCLUZIVA,,18,Strada Filarmonicii,143469
46.1528249,24.7225466,416989603,SCOALA GENERALA,,,,116536
44.2008617,27.3183373,417771537,LICEUL AGRICOL SANDU ALDEA,,,,92578
45.9797469,25.3573635,427674327,SCOALA GENERALA,,,,41195
46.2136154,26.4453528,428041191,SCOALA CU CLASELE I VIII NR 1,,,,20929
44.1165227,24.3746495,430267621,COLEGIUL AGRICOL DIMITRIE PETRESCU,,,,125481
44.4186504,26.162199,436233861,SFANTUL ANDREI,,,,179169
47.1541891,27.5712652,442871002,SCOALA NR 34 ION SIMIONESCU,,,,95079
44.554096,28.5946245,444319986,,,,,0
44.4842108,26.553224,444361321,SCOALA NR 178,,,,0
44.4648529,26.704097,444362715,LICEUL NICOLAE IORGA,,,,0
45.278774,23.2785808,448885386,COLEGIUL NATIONAL SPIRU HARET,Liceul Pedagogic,106,Strada 1 Decembrie 1918,0
44.4156916,26.1325447,450519601,SCOALA GENERALA NR 84,,,,179169
44.4209323,26.1359807,450520679,SCOALA NR 80,,,,179169
44.4554742,26.835205,453483958,SCOALA GENERALA NR 11 ION HELIADE RADULESCU,,,,0
47.1546179,27.6646075,457460290,,,,,95186
44.4089586,26.693249,457853794,LICEUL DIMITRIE BOLINTINEANU,,,,0
44.4813086,26.986356,458227057,SCOALA GENERALA NR 12,,27,Strada Borsa,0
47.14545,27.5779173,461611335,SCOALA VASILE CONTA ,,2,,95079
47.1688239,27.5937811,469791806,GRUP SCOLAR DE ARTE SI MESERII SPIRU HARET,,12 14,,95079
47.6608976,23.6988415,469928963,GRUPUL SCOLAR INDUSTRIAL DE TRANSPORTURI AUTO BAIA SPRIE,,,,106693
47.6623184,23.700206,469936787,SCOALA GENERALA NR 1,,,,106693
47.6630237,23.6871168,469936794,SCOALA GENERALA NR 2,,,,106693
45.9670845,21.4792248,472356539,SCOALA GENERALA I VIII,,,,157727
46.3406977,21.3077854,472379247,GRUPUL SCOLAR ION CREANGA CLADIREA 1,,,Strada Revolutiei,9501
46.3402855,21.308525,472411670,GRUPUL SCOLAR ION CREANGA CLADIREA 2,,,Strada Revolutiei,9501
46.3852907,21.3123688,474771300,SCOALA MACEA,,,,11405
44.1977161,27.3317722,474982133,COLEGIUL NATIONAL BARBU STIRBEI,,,,92578
44.919522,26.354546,475528153,SCOALA GENERALA MIHAI EMINESCU,,,Strada Barcanesti,0
44.9367232,26.25201,475847078,,,,,0
44.9407528,25.9924346,475876963,LICEUL ENERGETIC,,,,130543
45.8614625,25.7758602,477357858,SCOALA GENERALA VARADI JOZSEF,,,,63401
47.3477792,25.3566936,479886940,LICEUL TEORETIC ION LUCA,,24,Strada Mihai Eminescu,146753
47.3422084,25.3622127,479896872,SCOALA GENERALA,,58,Strada Unirii,146753
47.348995,25.3669904,479921603,SCOALA GENERALA NR 3,,,,146753
47.3454892,25.3485408,479921614,SCOALA GENERALA NR 1,,,,146753
47.3474136,25.3522116,479921626,SCOALA GENERALA NR 4,,,,146753
44.9438617,26.302725,480004078,SCOALA SF VINERI,,,,0
44.9597799,26.1398539,480009729,LICEU VALEA CALUGAREASCA,,,,136072
46.805834,21.647366,481298144,COLEGIUL NATIONAL ARANY JANOS,,,,26984
44.9271922,26.223774,481442907,,,,,0
44.9325353,25.993005,482217261,SCOALA NR 29,,,,130543
44.9307784,26.5728,482217341,SCOALA NR 20,,,,0
45.7983196,24.1536668,482811677,SCOALA GENERALA NR 2,,13,Strada Avram Iancu,143469
45.7795362,24.1503216,482811688,LICEUL TEOLOGIC BAPTIST BETANIA,,,,143469
45.813728,24.1359068,482811698,SCOALA GENERALA NR 23,,,,143469
45.7853844,24.1164169,482811700,,,,,143469
45.7896159,24.1181592,482811701,,,,,143469
45.8065906,24.1500774,482811706,COLEGIUL TEHNIC DE INDUSTRIE ALIMENTARA,,,,143469
45.7967775,24.1787449,482811717,GRUP SCOLAR INDUSTRIA DE CONSTRUCTII MASINI,,,,143469
45.8019281,24.1502202,482833627,COLEGIUL TEHNIC INDEPENDENTA SIBIU,,,,143469
45.7785558,24.1523408,483025287,SCOALA GENERALA NR 6,,,,143469
45.8040777,24.1652008,483025356,SCOALA GENERALA NR 8,,,,143469
45.7988659,24.1536394,483025374,GRUP SCOLAR AVRAM IANCU,,,,143469
44.4563828,26.1267308,485150696,SCOALA GENERALA NR 27 PRINCIPESA ILEANA,,,,179150
46.6409718,27.7283225,487063605,LICEUL TEORETIC MIHAIL KOGALNICEANU,,,,161954
46.9599351,24.7080378,488145080,SCOALA GENERALA GLEDIN,,,,33970
44.9583679,26.3142,490607285,,,,,0
47.5640974,22.9516428,490890474,,,,,138878
47.5624178,22.9505699,490892353,,,,,138878
47.792368,22.8787534,491000180,LICEUL TEOLOGIC ROMANO CATOLIC HAM JANOS,,,,136492
47.7680585,22.8833209,491016982,SCOALA GENERALA NR 7,,,,136492
47.1349804,24.4948353,491212431,COLEGIUL NATIONAL LIVIU REBREANU,,8,Bulevardul Republicii,32401
44.9315393,26.350819,491228564,,,,,0
45.168607,26.3291737,491242040,SCOALA GENERALA CEPTURA DE JOS,,,,0
44.3760408,25.8696231,493241931,,,,,102598
44.4371396,26.1132579,494791040,COLEGIUL ECONOMIC HERMES,,152,Calea MoSilor,179150
47.8788114,26.4098378,495440631,SCOALA GENERALA VACULESTI,,,,39621
47.8778669,26.4061995,495484215,,,,,39621
43.8896517,25.9592943,495966730,SCOALA GENERALA NR 1 SFANTUL GHEORGHE,,,,100530
47.7888781,22.8830579,496799573,LICEUL ECONOMIC,,,,136492
47.7968182,22.8880275,496799574,GRUP SCOLAR DE INDUSTRIALIZAREA LEMNULUI,,,,136492
43.8934063,25.9687442,500265401,SCOALA GENERALA NR 4 MIHAI EMINESCU,,,,100530
43.8963109,25.9548116,500265415,SCOALA GENERALA NR 3,,,,100530
45.7237162,21.175748,500849664,SCOALA GENERALA NR 29,,,,155252
45.5505429,27.9877887,502105846,,,,,75187
47.503477,21.9471089,503613347,,,,,0
45.1483548,26.809516,503618409,LICEUL PEDAGOGIC SPIRU HARET,,,,44827
45.1460157,26.8479655,503774100,GRUPUL SCOLAR INDUSTRIAL TRANSPORTURI CAI FERATE,,,,44827
47.1433804,27.5964238,506453831,SCOALA GENERALA NR 14 GH MARZESCU,,,,95079
47.1426846,27.5956044,506454415,GRUPUL SCOLAR TEHNIC DE TRANSPORTURI CAI FERATE,,,,95079
47.1422109,27.5971802,506454488,COLEGIUL TEHNIC DIMITRIE LEONIDA,,,,95079
47.1437635,27.598237,506454489,COLEGIUL TEHNIC IOAN C STEFANESCU,,51 53,Bulevardul Socola,95079
45.8650709,25.7878312,506523261,SZEKELY MIKO  KOLLEGIUM,,,,63401
46.557499,24.5810921,506584370,GRUPUL SCOLAR SANITAR GH MARINESCU,,,Strada Gheorghe Marinescu,114328
43.8883537,25.9678117,506967993,SCOALA GENERALA NR 7,,,,100530
44.4951793,26.744809,509625059,SCOALA GENERALA NR 6,,74,Strada Constantin Dobrogeanu Gherea,0
47.50467,21.9199967,516102303,SCOALA SPORTIVA,,,,0
47.7858046,22.8633394,517968276,SCOALA AVRAM IANCU,,,,136492
47.1440012,27.5931192,519667127,GRUP SCOLAR NICOLINA,,,,95079
43.9084275,25.9755217,521824310,SCOALA GENERALA NR 10,,,,100530
43.9063907,25.972804,521825191,,,,,100530
47.6114176,22.7036185,522096823,,,,,137452
47.7904572,22.8818717,522123624,GRUP SCOLAR DE TRANSPORT SI TELECOMUNICATII I C BRATIANU,,,,136492
47.7944762,22.8741126,522126094,LICEUL TEORETIC DOAMNA STANCA,,,,136492
47.7958485,22.8742499,522129883,COLEGIUL NATIONAL KOLCSEY FERENC,,,,136492
47.7966788,22.8747649,522129887,COLEGIUL NATIONAL IOAN SLAVICI,,,,136492
47.7988986,22.8814082,522133570,LICEUL DE ARTA AUREL POPP,,,,136492
47.7988525,22.8811249,522133576,LICEUL CU PROGRAM SPORTIV,,,,136492
47.7948337,22.8783269,522169515,SCOALA GENERALA GRIGORE MOISIL,,,,136492
47.7895792,22.8761719,523409162,COLEGIUL NATIONAL MIHAI EMINESCU,,,,136492
47.790971,22.8770557,523411063,COLEGIUL NATIONAL KOLCSEY FERENC,,1,Strada Mihai Eminescu,136492
45.3616393,26.6627426,525416826,SCOALA GENERALA I VIII,,,,49322
45.1514582,26.8234577,525595794,LICEUL ECONOMIC,,,,44827
46.5474136,24.5638017,530099084,LICEUL DE ARTA,,,,114328
46.5583315,24.5749718,530099128,,,,,114328
46.5585404,24.5783835,530099137,,,,,114328
47.1578881,27.5997994,530707058,COLEGIUL RICHARD WURMBRAND,,,,95079
44.4206361,24.3890571,533987870,COLEGIUL TEHNIC ION MINCU,,,,125356
45.447909,28.347203,534356141,LICEUL CFR," Grup Scolar Industrial Transporturi Feroviare""",,,0
44.1891103,27.3364552,534416949,LICEUL ECONOMIC,,,,92578
44.4188132,24.3830359,535072567,SCOALA CONSTANTIN BRANCOVEANU,,,,125356
45.4979954,28.129541,540653894,SCOALA PRIMARA NR 1,,,,0
47.1804685,27.501882,544366181,,,,,95284
45.8487152,23.142537,564747661,SCOALA GENERALA SIGISMUND TODUTA,,,,0
45.8542155,23.14642,564815507,SCOALA GENERALA NR 1,,,,0
45.6644304,25.5040861,565365539,SCOALA GENERALA,,,,40223
45.5296237,28.142521,565597112,,,,,0
44.9357312,25.4519754,577042675,SCOALA GENERALA  NR 4,,,,65351
44.932357,25.456637,577042681,SCOALA GENERALA NR 1,,,,65351
44.9329503,25.4480684,577046679,SCOALA GENERALA 10,,,,65351
45.7622676,25.5451861,577287511,,,,,41042
45.7609615,25.5442848,577287512,,,,,41042
47.772357,27.5512604,588972097,,,,,0
47.645422,27.5760757,589013815,,,,,0
47.961992,27.563533,589036727,SCOALA LUNCA CETATUIEI,,,,0
45.8386078,23.2007744,590421227,SCOALA GENERALA DR A VLAD,,10,Strada Luminii,87647
46.3713931,22.1276586,591581826,,,,,9707
44.424829,26.243144,597152973,,,,,0
46.8856183,27.9173717,598504849,,,,,96931
44.4183305,26.162569,599004065,SCOALA GENERALA NR 57,,,,179169
46.1694457,21.3127172,599200871,SCOALA POPULARA DE ARTE,,,Strada Gheorghe Baritiu,9271
46.802823,21.6637329,599492088,SCOALA GENERALA,,,,26984
46.7889318,21.7745976,599497354,SCOALA GENERALA TULCA,,,,31850
46.8112055,21.6490665,599499126,,,,,26984
46.7937301,21.8629614,599535824,SCOALA GENERALA GURBEDIU,,,,31823
47.1980236,27.5438431,599584735,GRUPUL SCOLAR AGRICOL VASILE ADAMACHI,,,,95079
47.2019496,27.5399659,599584736,SCOALA NORMALA VASILE LUPU,,,,95079
47.7434856,26.6488984,600096814,LICEUL MIHAI EMINESCU,,,,35740
47.7372118,26.6656592,600096900,SCOALA GENERALA 10,,,,35740
44.4045082,26.931617,601660748,SCOALA NR 114,,,,0
44.3959009,26.995316,601723683,SCOALA NR 111,,,,0
44.4037086,26.667027,601724656,SCOALA NR 141,,,,0
45.6810445,21.899705,602089064,CLUBUL COPIILOR,,,,155369
47.201494,27.5377505,603670065,SEMINARUL TEOLOGIC ORTODOX  SF VASILE CEL MARE,,46,Aleea M Sadoveanu,95079
44.4414004,24.7206362,608493877,SCOALA GENERALA CU CLASELE I VIII BUZESTI,,,,126371
45.6963311,21.2362232,611523879,SCOALA GIROC,,,,155323
45.2479719,25.945114,614929557,,,,,131595
47.9307338,23.8873652,618355091,DRAGOS VODA,,,,106568
44.4307338,24.3740397,618806444,LICEUL SPORTIV SLATINA,,,,125356
44.4314788,24.3524057,619204686,COLEGIUL NATIONAL RADU GRECEANU,,,,125356
44.4367848,26.143133,620080075,SCOALA GENERALA NR 198,,73,Strada Apusului,179150
46.5592031,24.5463526,620393667,SCOALA GENERALA NR 8,,,,114328
44.4415112,24.3557143,620911338,COLEGIUL NATIONAL CAROL I,,,,125356
44.4231579,24.3788165,620915603,COLEGIUL TEHNIC METALURGIC,,,,125356
44.4289423,26.1375008,622342272,SCOALA NR 70,,,,179169
44.4150524,26.160886,623620886,SCOALA GENERALA NR 89 NICOLAE LABIS,,,,179169
44.4142147,26.1667238,623630866,SCOALA GENERALA NR 112,,,,179169
44.4214764,26.1612382,623681949,SCOALA GIMNAZIALA NR 195 HAMBURG,,,,179169
44.4103889,26.1692083,631272510,SCOALA GENERALA NR 92,,,,179169
44.4083249,26.1748663,631302979,SCOALA GENERALA NR 20 SIMION MEHEDINTI,,,,179169
44.4527683,26.761443,635777683,SCOALA CU CLASELE I VIII NR 3,,,Soseaua Nicolae Titulescu,0
44.4111898,26.1809703,636062663,SCOALA GENERALA NR 149,,,,179169
44.4230354,26.1478834,639134861,SCOALA NR 86,,,,179169
44.430716,26.1600592,640391847,SCOALA NR 199,,,,179169
47.176691,27.4947122,642359114,SCOALA NOUA,,,,95284
47.1724607,27.5814938,661254675,COLEGIUL NATIONAL MIHAI EMINESCU,,,,95079
44.4249731,26.1775909,662296416,SCOALA GENERALA NR 22 MEXIC,,,,179169
44.8437596,25.2498006,663870193,SCOALA GENERALA NR 1 HULUBESTI,,,,67684
44.4317843,26.1711343,663951028,SCOALA GENERALA NR 94,,,,179169
44.4279152,26.1719944,663951029,SCOALA GENERALA NR 21 LIVIU REBREANU,,,,179169
44.4471263,26.1426878,667747312,SCOALA GIMNAZIALA FERDINAND I,,16,Bulevardul Garii Obor,179150
47.17309,27.578575,669502939,SCOALA MIHAIL KOGALNICEANU,,,,95079
45.8168868,24.291999,670044707,,,,,0
46.9981402,24.6030156,676502698,SCOALA GENERALA,,,,34654
47.1944645,27.4170684,678906534,SCOALA GENERALA I VIII LETCANI,,,,97688
47.1826196,27.5689721,686512109,COLEGIUL TEHNIC GHEORGHE ASACHI,,,,95079
44.4292717,26.2023922,686660006,SCOALA GENERALA NR 55,,46,Soseaua Industriilor,179169
44.4403981,26.1785249,686667289,SCOALA NR 66,,,,179150
47.1666232,27.5925699,692767601,COLEGIUL RICHARD WURMBRAND,,,,95079
47.577786,21.9317916,703828486,LICEUL TEORETIC ADY ENDRE COMPLEXUL URSULINELOR,,,Strada Moscovei,0
47.561925,21.9278327,703830752,SCOALA GENERALA,,,,0
44.1920879,27.3622527,706747607,COLEGIUL TEHNIC STEFAN BANULESCU CALARASI,,,,92578
44.2758777,27.1614318,717715867,SCOALA CU CLASELE I VIII,,,,93780
44.275361,27.1606693,717715884,SCOALA CU CLASELE I VIII,,,,93780
46.8278438,21.6777768,725040944,SCOALA GENERALA,,,,30023
46.7993274,21.640056,725663170,LICEUL AGRICOL,,,,26984
46.8014162,21.6601782,725672519,SCOALA GENERALA,,,,26984
46.7447931,23.4852344,727700810,SCOALA GIMNAZIALA GHEORGHE SINCAI,,,,57715
44.2802274,24.9905041,730548131,SCOALA GENERALA I IV PLOPI,,,,152840
45.4431289,25.3305711,739450234,SCOALA GENERALA,,,,41523
47.656579,25.4926067,742227602,SCOALA GENERALA NR 1,,,,0
46.7768282,23.5862552,752792100,SCOALA HOREA,,,Strada Horea,54984
44.4385875,26.233697,755903243,SCOALA GENERALA NR 310,,,,179524
47.1478437,27.5763326,764840939,GRUP SCOLAR ION HOLBAN,,16,Strada Pantelimon Halipa,95079
47.787977,22.8574178,773473998,SCOALA DARIU POP,,,,136492
46.86561,25.151471,799418663,,,,,0
44.4321906,26.262815,807052060,SCOALA CU CLASELE 18 NR 142,,,,0
45.1585208,26.8216866,836177110,SCOALA NR 11,,,,44827
45.4117091,27.9221397,843324739,SCOALA GIMNAZIALA,,,,75123
45.6593823,25.5929366,845704148,SCOALA NR 15 CORP B,,2,Strada Plevnei,40205
47.6052356,22.3633825,860220866,,,,,138510
47.8381161,26.7569147,863622583,SCOALA MANASTIRENI,,,,39578
43.817427,28.2084686,864302143,LICEUL TEORETIC NEGRU VODA,,,,62404
46.410373,25.2792624,879012496,SCOALA GENERALA,,,,0
47.6998715,24.1126145,879129764,,,,,107500
47.9726098,23.6967291,880134734,SCOALA GENERALA SAPANTA,,,,108954
47.6588956,24.349514,880178056,SCOALA MIHAI EMINESCU,,,,108909
47.6889128,24.2704779,880188420,,,,,107412
45.6254202,25.4788387,880858099,SCOALA GENERALA,,,,40919
44.45467,26.73096,885619255,LICEUL TEORETIC ION NECULCE,,,,0
44.3407976,27.913941,892706054,SCOALA CLASELE I VIII,,,,0
44.3472344,27.728925,892706055,,,,,0
47.4298712,26.8975865,893141844,,,,,95364
44.4085987,27.8212986,897622503,,,,,92738
45.4747391,27.9433072,902401585,SCOALA GIMNAZIALA SMARDAN,,,,77233
44.2376058,26.4671117,904341503,GRADINITA,,,,101467
44.8567932,24.8800639,906648696,SCOALA GENERALA NR 5 NICOLAE IORGA,,,,13178
46.3467909,22.9089619,913202606,,,,,8719
47.186925,23.545813,914507010,MIHAI EMINESCU,,,,0
44.4967417,26.57137,919559390,INTERNATIONAL SCHOOL FOR PRIMARY EDUCATION,,72,Strada Petre S Aurelian,0
44.4879702,26.522342,923488368,SCOALA SPECIALA NR 8,,,,0
44.43385,26.424504,949776449,LICEUL TEORETIC TUDOR VLADIMIRESCU,,,,0
45.6324929,23.2152925,954599996,SCOALA PRIMARA GRADISTE,,,,90397
44.1925123,27.3319259,954628460,SCOALA NR 4 CAROL I GIMNAZIUL,,,,92578
44.4945608,26.261258,959137490,SCOALA NR 181,,,,0
44.9325002,26.288858,984758344,LICEUL PEDAGOGIC,,,,0
47.1684151,27.593232,985225464,SCOALA SPECIALA CONSTANTIN PAUNESCU,,11 15,Bulevardul C A Rosetti,95079
46.2969222,25.2882152,987439662,LICEUL SPIRU HARET,,2,Strada Budvár,83142
43.8558612,24.2913662,1002173767,SCOALA GENERALA I VIII,,,,129638
47.4292668,24.3964664,1015951980,,,,,35063
46.2185501,24.3573216,1071447172,SCOALA GENERALA,,,,144321
46.2174444,24.3574886,1071447187,SCOALA VECHE,,,,144321
46.1658533,24.3510105,1073214711,LICEUL STEPHAN LUDWIG ROTH,,,,143628
46.165477,24.3510765,1073214737,SCOALA HERMANN OBERTH,,,,143628
44.4421185,26.1557536,1077600589,SCOALA GENERALA NR 51,,1,Strada Herta,179150
44.4390322,26.1553422,1077666580,SCOALA GIMNAZIALA NR 4,,14A,Strada Herta,179150
44.4335081,26.1946462,1077805596,SCOALA GENERALA NR 67,,1,Strada Magnetului,179169
44.4355382,26.2011962,1077813934,SCOALA GENERALA NR 78,,50,Soseaua Garii Catelu,179169
44.4291717,26.2131588,1077830150,SCOALA GENERALA NR 47,,130,Soseaua Garii Catelu,179169
47.6860348,22.470918,1081234419,SCOALA VASILE LUCACIU,,,,136535
45.3776807,27.476124,1125550442,COLEGIUL NATIONAL ALEXANDRU VLAHUTA,Liceul de Baieti Regele Ferdinand,,,0
46.3774338,25.8013763,1189668407,XANTUS JANOS,,,,83339
47.5783469,26.6346188,1211195288,,,,,39881
44.4062615,26.950695,1213018252,COLEGIULUI TEHNOLOGIC GRIGORE CERCHEZ,,,,0
47.659764,24.3577957,1216004288,SCOALA GENERALA MIHAI EMINESCU,,,,108909
47.6592386,24.3590898,1216019021,SCOALA GENERALA MIHAI EMINESCU,,,,108909
45.7093388,24.1435947,1221343530,SCOALA NR 3,,,,143744
45.7125603,24.1502466,1221344264,LICEUL GUSTAV GUNDISCH,,,,143744
45.7180763,24.1560487,1221345252,SCOALA NR 1,,,,143744
45.7149125,24.1455688,1221347482,SCOALA NR 2,,,,143744
47.8374052,26.6062351,1236476062,SCOALA DE ARTE SI MESERII ROMA,,,,38820
47.8282789,26.6069815,1236476152,SCOALA CU CLASELE I IV ROMA 2,,,,38820
47.8374514,26.6250476,1236476193,SCOALA CU CLASELE I IV ROMA 3,,,,38820
47.8367963,26.6080033,1236476205,SCOALA CU CLASELE I IV ROMA 1,,,,38820
47.6406156,26.5772748,1244635551,,,,,36765
45.376562,27.9293764,1248861305,SCOALA CU CLASELE I VIII,,,,44408
44.1970156,27.3904198,1258004171,SCOALA NR 2,,,,92596
44.1940841,27.383514,1258004210,SCOALA NR 1,,,,92596
47.20954,27.5579687,1261169070,,,,,98523
44.5506929,26.709852,1263254336,LICEUL TEORETIC IOAN PETRUS,,,,0
47.2164385,27.5042499,1267082775,SCOALA REDIU,,,,95248
44.9400623,25.9988817,1272415082,SCOALA NR 2,,,,130543
44.9558057,25.9998658,1274496907,SCOALA NR 8 GRIGORE MOISIL,,2A,Strada Laurilor,130543
44.9548813,25.9990976,1274496908,SCOALA NR 25 HM BERTHELOT,,2,Strada Arinului,130543
45.3425683,24.2397487,1291394488,,,,,167801
47.225883,27.5912225,1295270856,,,,,95765
44.3678329,24.2573732,1297035927,LICEUL PIATRA OLT,,,,128114
45.1088229,24.3640031,1300134489,,,,,167482
45.1064796,24.3640008,1300134506,SCOALA TAKE IONESCU,,,,167482
45.1490998,24.3710194,1300134510,SCOALA BUJORENI,,,,168915
44.4191395,26.380549,1304500571,SCOALA NR 205,,,,0
47.1467689,27.5291799,1312201676,SCOALA CONSTANTINTIN LANGA,,,,97928
43.7521322,24.8720272,1315018258,SCOALA MIRCEA CEL BATRAN,,,,151692
43.7441959,24.8686154,1315026343,COLEGIUL NATIONAL UNIREA,,25,Castanilor,151692
44.9333864,26.473742,1324022951,,,,,0
45.973324,24.3718331,1341255445,SCOALA GENERALA,,,,0
45.921898,24.3731045,1341255467,SCOALA NR 9,,,,0
44.9262821,25.466985,1356400701,SCOALA IOAN ALEXANDRU BRATESCU VOINESTI,,,,65351
43.8018166,24.842288,1364956780,LICEUL TEORETIC CONSTANTIN BRANCOVEANU,,4,Strada Marin Preda,
43.7979417,24.1082429,1365142315,SCOALA NR 4,,,,72016
45.1187974,25.7362186,1395796200,SALA DE SPORT LICEUL ENERGETIC,,,,131265
45.2544291,21.4150116,1395849327,,,,,157371
46.778324,23.577204,1396367388,LICEUL TEOLOGIC EMANUEL,,,,54984
47.6250277,26.2919029,1404437431,SCOALA GENERALA IPOTESTI,,,,146290
44.140958,22.9287688,1437183191,,,,,113509
45.1085647,24.3610949,1439234412,COLEGIUL NATIONAL MIRCEA CEL BATRAN,,,,167482
45.1113989,24.3673769,1440580309,SCOALA GIMNAZIALA I GHEORGHE DUCA,,,,167482
45.7180986,22.8833245,1454193276,SCOALA GENERALA TELIUCU INFERIOR,,1,Strada Zoriilor,86945
44.8867949,26.5089746,1471087204,SCOALA GENERALA GRADISTEA,,,,132397
47.1263248,24.4926003,1474247353,CSEI NR 1,,20 bis,Strada Alba Iulia,32401
44.8640135,24.8654533,1495075114,CENTRU EDUCATIONAL,,,,13178
44.8535338,24.8742658,1495075286,COLEGIUL NATIONAL ZINCA GOLESCU,,,,13178
44.8697217,24.8600651,1495075334,UNIVERSITATEA CONSTANTIN BRANCOVEANU,,,,13178
44.8372245,24.9027158,1495075442,,,,,13178
44.8556942,24.8644077,1495075471,SCOALA DE LIMBI STRAINE LEXIS,,,,13178
44.8326007,24.9098367,1495075549,SCOALA GENERALA NR 18,,,,13178
44.8690242,24.8605675,1495075575,SCOALA NR 14,,,,13178
44.829079,24.9146264,1495075605,,,,,13178
44.8633027,24.8734993,1495075706,SCOALA GENERALA I VIII MARIN PREDA,,,,13178
44.83153,24.9098367,1495076059,COLEGIUL TEHNIC COSTIN D NENITESCU,,,,13178
44.8723764,24.8395987,1495076116,SCOALA NR 15 ADRIAN PAUNESCU,,,,13178
44.3041959,23.7977871,1544372507,SCOALA NR 18,,162,Calea Unirii,69919
46.2403913,24.8100059,1564332108,SCOALA GENERALA DEALUL VIILOR CLASELE I VIII,,,,114523
45.8659519,25.8067288,1566920167,,,,,63401
44.9866781,26.2341534,1584417674,LICEUL TEORETIC BRANCOVEANU VODA URLATI,,,,131639
44.9883627,26.2340676,1584417714,,,,,131639
44.4275012,26.1172609,1585220372,,,,,179169
47.1500293,27.5227678,1591444634,GRUP SCOLAR AGRICOL M KOGALNICEANU,,,,97928
45.8210975,24.9672227,1615566083,SCOALA GENERALA NR 3,,,,40287
45.844821,24.9672685,1615566087,COLEGIUL NATIONAL DOAMNA STANCA,,,,40287
45.841672,24.9768073,1615566088,SCOALA GIMNAZIALA OVID DENSUSIANU,,,,40287
45.8454523,24.969524,1615566091,SCOALA GENERALA NR 6,,,,40287
45.8423712,24.9696731,1615566099,COLEGIUL NATIONAL RADU NEGRU,,,,40287
45.8352498,24.9698996,1615566101,SCOALA GENERALA NR 7,,,,40287
45.834629,24.9738491,1615566102,LICEUL TEOLOGIC ORTODOX SF CONSTANTIN BRANCOVEANU,,,,40287
45.8421466,24.9677324,1615566105,COLEGIUL NATIONAL RADU NEGRU,,,,40287
45.8202078,24.9675896,1615566107,COLEGIUL AUREL VIJOLI,,,,40287
47.4496639,26.850557,1619907415,,,,,0
47.4631806,26.3017509,1621471980,COLEGIUL NATIONAL NICU GANE,,,,146548
44.9865226,26.6833351,1629711420,SCOALA MOVILA BANULUI,,,,47783
43.7557861,24.87067,1679603486,,,,,151692
43.7580538,24.8671071,1679619441,SCOALA NR 4,,,,151692
47.1091125,27.5062277,1681555984,SCOALA DIMITRIE ANGHEL I VIII,,,,97964
46.7726264,23.6035928,1687361459,LICEUL SPECIAL PENTRU DEFICIENTI DE VEDERE,,31,Calea Dorobantilor,54984
46.772044,23.5925689,1691110307,LICEUL TEOLOGIC UNITARIAN JANOS ZSIGMOND,,,Bulevardul 21 Decembrie 1989,54984
44.6549009,25.4565678,1699120909,SCOALA GENERALA,,,,68100
44.4141776,26.1112917,1702354192,SCOALA NR 97,,,,179178
44.661899,24.2626601,1705440489,NICOLAE BALCESCU,,,,167990
46.7537414,23.59439,1708879226,LICEUL DE INFORMATICA TIBERIU POPOVICIU,,140 142,Calea Turzii,54984
44.1802006,28.6380842,1710072497,INSTITUTUL PENTRU DEZVOLTAREA RESURSELOR UMANE IDRU,,46,Strada I G Duca,60428
44.8664996,26.5506863,1723326510,SCOALA BOLDESTI,,,,132388
46.925456,21.6932179,1731181823,ATANASIE MARIENESCU,,,,0
47.2409774,27.5321584,1735651786,,,,,98587
47.3035906,27.547956,1736011623,,,,,98532
44.4491455,26.991584,1768898160,CAMBRIDGE SCHOOL,,,,0
46.930011,21.6983671,1769846305,GRUPUL SCOLAR ATANASIE MARIENESCU CLASELE I IV,,,,0
46.932101,21.6945466,1769846309,GRUPUL SCOLAR SEVER BOCU,,,,0
45.1790554,25.6644404,1778296231,SCOALA AJUTATOARE SPECIALA,,,,131121
44.7210439,25.3205287,1805891024,SCOALA NR 6,,,,65690
46.9387934,26.3580729,1813499593,COLEGIUL TEHNIC,,,,120735
44.1643699,28.4806641,1815674221,SCOALA GENERALA,,,,63134
45.8379711,27.6901259,1817555497,SCOALA GIMNAZIALA VALEA MARULUI,,,,77484
44.6215767,26.1020358,1817667482,GRADINITA CU PROGRAM PRELUNGIT,,,,100978
44.6105945,26.740995,1817672108,SCOALA NR 1 BALOTESTI,,,,0
47.139133,22.5126761,1830284023,,,,,31388
47.685086,27.8069545,1837409635,,,,,0
45.5094435,26.4427769,1862822058,,,,,47140
45.1620227,25.8192264,1871273654,,,,,135832
47.1393656,24.4970115,1880771883,UNIVERSITATEA BABES BOLYAI CLUJ NAPOCA, Extensia Universitara Bistrita,Apollo,3 5,32401
45.4310077,28.201991,1881043505,LICEUL AUTO TRAIAN VUIA,,,,0
45.2873846,26.6736176,1881107483,,,,,45110
47.6748683,22.6573644,1883120455,,,,,138262
46.3052921,23.1257043,1885430106,SCOALA PRIMARA,,,,6770
46.3049161,23.1261452,1885430108,,,,,6770
45.9576144,23.5671152,1889140406,SCOALA GENERALA NR 2,,,,1883
45.9564135,23.5728122,1889143299,SCOALA GENERALA NR 3,,,,1883
45.238896,23.2715272,1891474652,LICEUL CU PROGRAM SPORTIV,Scoala Generala Nr 14,100,Strada 23 August,0
45.374953,23.2727873,1893278640,SCOALA GENERALA CONSTANTIN SAVOIU,Scoala Generala Nr 8,27,Strada Unirii,87184
45.383051,23.27592,1893281701,SCOALA GENERALA ALEXANDRU STEFULESCU,Scoala Geberala Nr 4,32,Calea Eroilor,0
45.476744,23.2749114,1893288138,SCOALA GENERALA SFANTUL NICOLAE,Scoala Generala Nr 6,56,Strada 11 Iunie 1848,0
45.513842,23.2825951,1893293310,SCOALA GENERALA ECATERINA TEODOROIU,Scoala Generala Nr 2,88,Bulevardul Ecaterina Teodoroiu,0
45.364367,23.2551966,1893313099,SCOALA GENERALA VOIEVOD LITOVOI,Scoala Generala Nr 5,86,Calea Severinului,87200
45.286749,23.272113,1893344901,SCOALA GENERALA GHEORGHE TATARASCU,Scoala Generala Nr 1,47,Strada 23 August,0
45.28129,23.2707127,1893347667,COLEGIUL NATIONAL ECATERINA TEODOROIU,Liceul Ecaterina Teodoroiu,25,Strada 1 Decembrie 1918,0
45.26253,23.2742947,1893352610,SCOALA GENERALA POMPILIU MARCEA,Scoala Generala Nr 11,4,Strada Mioritei,0
45.310537,23.2785377,1893358474,LICEUL TEOLOGIC,Scoala Generala Nr 13,23,Strada Alexandru Ioan Cuza,0
45.316122,23.2689062,1893362995,COLEGIUL TEHNIC NR 2,Liceul Nr 2,132 134,Strada Victoriei,0
45.51958,23.279953,1893367003,COLEGIUL TEHNIC ION MINCU,Liceul Nr 4,3,Strada Locotenent Colonel Dumitru Petrescu,0
45.533928,23.2790543,1893377212,COLEGIUL TEHNIC GENERAL GHEORGHE MAGHERU,Liceul Nr 1,3,Strada Locotenent Colonel Dumitru Petrescu,0
45.568792,23.2883616,1893386229,COLEGIUL TEHNIC HENRI COANDA,Liceul Nr 5,2,Strada Islaz,0
45.661919,23.2938473,1893391760,COLEGIUL AUTO TRAIAN VUIA,Liceul Nr 3,342,Bulevardul Ecaterina Teodoroiu,0
45.287063,23.2706579,1893404150,COLEGIUL ENERGETIC NR 1,Liceul Energetic,11,Aleea 23 August,0
45.516874,23.2337786,1893429755,GRUPUL SCOLAR BARSESTI,Liceul Agricol,8,Strada Bârsesti,0
45.7008193,25.4378991,1895162525,,,,,40250
45.7005121,25.4385857,1895162552,,,,,40250
44.7597238,24.7381267,1906492093,,,,,18634
47.4211618,26.2196766,1907126805,,,,,146913
46.1099018,24.6480657,1907412112,,,,,144768
45.404964,24.690407,1910350465,,,,,0
47.4653428,26.1444372,1912858637,,,,,147795
46.934956,26.3743057,1923457126,SCOALA NR 7,,,,120735
44.440611,26.1536172,1924882811,GRUP SCOLAR INDUSTRIAL SFANTUL PANTELIMON,,12A,Strada Hambarului,179150
45.5020199,27.4846139,1925159431,SCOALA MAICANESTI,,,,176622
45.1370034,25.6347776,1931345766,GRADINITA,,,,134906
47.2558798,23.3510019,1932215504,SCOALA GIMNAZIALA,,,,142783
43.7997388,24.785605,1933725619,SCOALA NUMARUL 3,,,,0
43.7978882,24.666939,1933728782,GRUP SCOLAR AGRICOL,,219,Petre Banita,0
47.4580667,26.2973083,1948744763,,,,,146548
47.4593579,26.2987883,1948744766,,,,,146548
47.2262997,27.6376155,1951440355,SCOALA ARON VODA,,,,95774
45.9593123,23.5612315,1960865405,SCOALA GENERALA NR 1,,,,1883
45.9525397,23.5700345,1960876550,COLEGIUL NATIONAL LUCIAN BLAGA,,,,1883
46.3625445,26.4849817,1961190679,,,,,22175
46.3679194,26.4638888,1961220263,,,,,22175
47.4936999,22.828858,1961350759,,,,,138949
46.9408688,26.3189702,1974994306,,,,,124974
47.1431781,24.5004007,2003446466,SCOALA GENERALA NR 4,,,,32401
45.443864,25.9523887,2013717031,COLEGIUL TEHNIC GHEORGHE LAZAR,,,,0
45.1158212,24.3691762,2018817087,LICEUL HENRI COANDA,,,,167482
47.759939,21.9119511,2034618953,LICEUL LUCIAN BLAGA,,,,0
47.407831,24.1491914,2038190275,,,,,0
45.4475585,23.4199407,2039129643,,,,,87086
47.7403823,26.6515182,2046508513,SCOALA GIMNAZIALA CU CLASELE I VIII NR 17,,,,35740
46.7726568,23.5857466,2048692911,,,,Strada George Baritiu,54984
46.7723482,23.5853229,2048692919,,,,Strada George Baritiu,54984
45.84527,24.3560994,2050553683,LICEUL TEHNOLOGIC GENERAL MAGHERU,,,,0
45.7162631,25.6838561,2088403627,,,,,41097
45.2796354,25.499874,2096756109,,,,,0
46.1765709,23.9230896,2103110422,COMPLEXUL EDUCATIONAL CARITAS BLAJ,,,,1357
45.6752358,26.341003,2104208268,SCOALA GENERALA MIHAIL SADOVEANU,,,,0
45.6738602,26.299244,2104215674,LICEUL MIRCEA ELIADE,,,,0
46.1985162,23.9400193,2114681836,,,,,7357
46.1770096,23.9180205,2119881920,SCOALA CU CLASELE I VIII ,"Toma CociSiu""",,,1357
45.4177809,23.372372,2124945200,SCOALA SPORTIVA,,,,87004
45.4201039,23.372937,2124952988,SCOALA GENERALA AVRAM STANCA,,,,87004
44.2541089,25.439188,2130313811,,,,,0
45.6758476,21.8983719,2142535906,SCOALA GENERALA NR 1,,,,155369
47.1429167,27.599937,2144226844,GRUP SCOLAR RADU CERNATESCU ,,61A,Bulevardul Socola,95079
47.1434233,27.6015775,2144238118,GRUP SCOLAR ANGHEL SALIGNY,,17,Strada Bucium,95079
47.1419757,27.6030597,2144477330,COLEGIUL TEHNIC DE ELECTRONICA SI TELECOMUNICATII IASI,,43,Strada Mihail Sturdza,95079
47.1415231,27.6014609,2144517416,COLEGIUL TEHNIC MIHAIL STURDZA,,2,Strada Mihail Sturdza,95079
47.1613862,27.5613355,2145543307,,,,,95079
47.1684759,27.5515823,2145712853,SCOALA GENERALA NR 3 ALEXANDRU VLAHUTA,,,,95079
47.1685343,27.546883,2145736708,SCOALA GENERALA NR 26 GEORGE COSBUC,,,,95079
45.5686666,28.469828,2146387091,,,,,0
47.1507962,27.5835453,2146678941,SCOALA GENERALA NR 23 TITU MAIORESCU,,,,95079
47.1635323,27.5590246,2146971842,SCOALA GENERALA NR 7 NICOLAE TONITZA,,,,95079
47.160374,27.6092059,2149760059,SCOALA GENERALA NR 22 BP HASDEU,,,,95079
47.1582475,27.6105281,2149763700,SCOALA GENERALA GHEORGHE I BRATIANU,,,,95079
47.157051,27.6177943,2149763851,SCOALA GENERALA IONEL TEODOREANU,,,,95079
47.1620228,27.609431,2149764669,SCOALA GENERALA NR 22 B P HASDEU,,,,95079
47.1653205,27.5858627,2158270377,COLEGIUL DE ARTE OCTAV BANCILA,,,,95079
47.1497587,27.5907741,2159698372,SCOALA GENERALA OTILIA CAZIMIR,,,,95079
45.7934288,23.8845699,2160085881,,,,,145505
45.7911245,23.882751,2160094607,,,,,145505
47.1739485,27.5443228,2160926808,SCOALA GENERALA ELENA CUZA,,,,95079
47.1306735,27.5720773,2161571324,SCOALA GENERALA NR 42,,,,95079
47.1864475,27.5641928,2164506237,LICEUL CU PROGRAM SPORTIV,,,,95079
47.1855498,27.5664421,2164517020,LICEUL DE INFORMATICA GRIGORE C MOISIL,,,,95079
45.1191595,25.6686113,2165247943,,,,,134862
47.1604694,27.5939224,2165794789,SCOALA GENERALA NR 8 CARMEN SYLVA,,,,95079
46.2656591,27.7185571,2171791958,SCOALA GENERALA CLASELE I VIII,,,,167188
46.74535,25.5949972,2172174179,GRUPUL SCOLAR BAROTI SZABO DAVID,,,,0
46.4707517,25.1838816,2172870648,ALTALANOS ISKOLA,,,,84184
46.4723774,25.1848686,2172871444,KORONDI KOZEPISKOLA,,590,Strada Fő,84184
47.1704603,27.5830924,2173841108,SCOALA POSTLICEALA SANITARA DE STAT GRIGORE GHICA VODA,,,,95079
46.3018009,25.2955225,2180740030,SCOALA GIMNAZIALA TAMASI ARON,,,,83142
46.9714112,27.4297025,2184406951,,,,,97884
45.2739694,27.9689783,2193145392,INSPECTORATUL SCOLAR JUDETEAN BRAILA,,172,Strada Alexandru Ioan Cuza,42691
47.1164257,27.5977341,2194606052,SCOALA PRIMARA VISAN,,,,95140
44.1961857,28.6505248,2202254537,FUNDATIA PENTRU PROMOVAREA TEHNOLOGIEI INFORMATIEI SI COMUNICATIEI,,15,Strada TimiSana,60428
45.418175,23.3738962,2209821230,UNIVERSITATEA PETROSANI,,,Strada Universitatii,87004
45.4196962,23.3759615,2209823557,UNIVERSITATEA PETROSANI,,20,Strada Universitatii,87004
47.1650049,27.5774485,2211607650,SCOALA GENERALA NR 31 CORP C COLEGIUL NATIONAL,,,,95079
47.1680843,27.5694525,2212130251,SCOALA GENERALA NR 15 STEFAN BARSANESCU,,,,95079
47.1750866,27.5525903,2217375258,SCOALA GENERALA ION CREANGA,,,,95079
45.7833114,21.2160687,2229384306,FACULTATEA DE AGRONOMIE,,,,155252
44.2115806,22.7696614,2264496594,SCOALA CU CLASELE I IV GARLA MARE,,,,111792
44.2092139,22.7746476,2264496595,SCOALA CU CLASELE V VIII GIRLA MARE,,,,111792
46.4813476,22.4761366,2266683565,SCOALA GENERALA CU CLASELE I VIII NICOLAE BOGDAN,,2A,,27016
47.5951146,25.8566184,2273403967,,,,,149389
47.4814421,27.2062055,2278116800,,,,,99414
45.3851237,26.4352125,2283343409,SCOALA PARASITA,,,,46475
47.1727622,27.5720221,2285946121,FACULTATEA DE PSIHOLOGIE SI STIINTE ALE EDUCATIEI UAIC,,,,95079
47.1723702,27.5718558,2285946540,FACULTATEA DE EDUCATIE FIZICA SI SPORT UAIC,,,,95079
47.3215133,27.95885,2286177895,SCOALA SATU NOU,,,,0
46.942897,27.1832368,2286418183,LICEUL EMIL BOTTA,,,,0
46.948888,27.1821424,2286418187,SCOALA NR 1,,,,0
46.957702,27.1813002,2286418191,SCOALA NR 4,,,,0
47.3197422,27.3873676,2290883225,SCOALA LARGA JIJIA I – VIII,,,,98284
44.1875825,28.6372825,2295415800,CENTRUL DE INSTRUIRE IN INFORMATICA GMB COMPUTERS,,,,60428
46.9706063,27.93498,2302489409,,,,,0
46.9813135,26.5158395,2323943837,SCOALA SPECIALA,,,,124420
46.9846493,26.5111751,2323943839,,,,,124420
44.3884681,26.948658,2353885037,,,,,0
47.72862,27.4317509,2355662328,,,,,0
44.8071633,25.857878,2359085601,,,,,0
45.6909534,27.1840099,2359460848,SCOALA CU CLASELE I VIII DULIU ZAMFIRESCU,,,,174753
46.8321632,27.455944,2362154006,,,,,161865
45.7794247,21.3785345,2365042167,SCOALA GENERALA,,,,158403
46.2101916,27.6481754,2374283074,LICEUL TEORETIC MIHAI EMINESCU,,,,161801
44.407661,26.1192302,2388994813,SCOALA NR 100 ANDREI SAGUNA,,,,179178
44.7488772,21.7900801,2393275523,,,,,52918
45.9284326,24.9293678,2399820516,SCOALA SOARS,,,,41952
45.7739732,24.1261103,2400104981,,,,,143469
47.214363,27.7656907,2408601449,,,,,96012
47.215784,27.7690161,2408601452,,,,,96012
47.268548,27.6692492,2408625574,,,,,97143
47.2308477,22.8045929,2419361972,LICEUL INDUSTRIAL,,,,139893
44.4202375,26.243309,2422522668,SCOALA GENERALA NR 155,,,,0
44.4215025,26.247676,2422522671,SCOALA GENERALA NR 169,,,,0
44.665649,28.6316286,2423005035,SCOALA GIMNAZIALA NR 1 EFORIE NORD,,,,0
44.4511428,26.1065792,2441258025,SCOALA NR 24,,,,179150
44.446211,26.1019992,2449754938,LEXIS SCOLI DE LIMBI STRAINE,,,,179141
44.4809549,26.478252,2450415163,TISHREEN ATAB SCHOOL,,,,0
44.4550798,26.1439904,2451803092,SCOALA GENERALA NR 145,,,,179150
44.4555763,26.1360844,2451808763,SCOALA GENERALA NR 25,,,,179150
44.318053,24.5637002,2456428430,,,,,0
47.8478576,23.9808777,2457827960,,,,,107341
45.5920092,25.4668617,2473103275,SCOALA GENERALA NR 2,,,,40376
47.4634262,27.990193,2478762827,GRADINITA BOROSOAIA,,,,0
46.98651,27.1866052,2482694663,SCOALA NR 2,,,,0
46.101398,27.1802457,2482698156,SCOALA NR 3,,,,174879
44.4441994,26.1318677,2485614281,CLUBUL SCOLAR SPORTIV NR 2,,,,179150
44.4391405,26.1316493,2495694242,INTERNATIONAL BRITISH SCHOOL OF BUCHAREST,,,,179150
44.4390207,26.1324197,2495694243,SCOALA GENERALA NR 85 VASILE BUNESCU,,,,179150
44.4112382,26.1391565,2496498544,SCOALA GENERALA NR 87 MIHAI BOTEZ,,,,179169
44.5962313,26.382224,2519563314,SCOALA NR 1,,,15,0
44.9550618,24.9308242,2521970133,,,,,13310
45.6910912,25.4516456,2555165583,SCOALA GENERALA NR 2,,,,40250
47.1657466,27.1697043,2572552462,,,,,97740
47.1661696,27.1694253,2572552463,,,,,97740
44.443398,26.1641551,2575507117,SCOALA NR 62,,,,179150
44.387587,26.908136,2590629556,COLEGIUL ENERGETIC,,,,93940
46.1223289,22.7908557,2596049931,SCOALA GENERALA MIRCEA SANTIMBREANU,,,Strada Libertatii,87308
45.8380393,23.1957452,2598971530,SCOALA SANITARA POSTLICEALA CAROL DAVILA,,,,87647
45.7033513,27.1733713,2622792336,SCOALA GENERALA NR 7,,,Strada CriSana,174753
44.77116,26.6380418,2627452402,LICEUL NICOLAE BALCESCU,,3,Soseaua Portului,0
44.833469,26.6376504,2627476609,LICEUL NEAGOE BASARAB,,,Strada Mihai Eminescu,0
44.5282876,26.3216,2642106292,SCOALA MOGOSOAIA,,,,0
44.9623856,25.4604165,2643738160,SCOALA GENERALA VIFORATA,,,,65404
46.7853178,23.5714804,2643894190,SCOALA DE AGENTI DE POLITIE SEPTIMIU MURESAN,,89 91,Strada Corneliu Coposu,54984
46.7705765,23.5848194,2644208666,COLEGIUL ECONOMIC IULIAN POP,,,Strada Emil Isac,54984
44.8492822,24.8546303,2647499837,SCOALA GENERALA NR 12,,,,13178
44.8439677,24.8918629,2667242390,SCOALA GENERALA NR 8,,,,13178
44.296453,24.207009,2668508590,,,,,128196
46.72964,20.6254754,2674299816,SCOALA GENERALA NR 2,,,,0
45.952031,24.3607453,2675696096,COLEGIUL ECONOMIC,,,Strada PetriSor,0
45.105622,24.3716316,2675756494,SCOALA GENERALA NR 5,,,Strada Tudor Vladimirescu,167482
45.1056553,24.3733273,2675756497,SCOALA DE APLICATIE PENTRU GENIU SI CAI FERATE PANAIT DONICI,,,Strada Tudor Vladimirescu,167482
46.742976,23.5826514,2687237723,SCOALA GENERALA VASILE GOLDIS,,2,Strada CalaraSilor,54984
47.27935,23.9082219,2698027824,GRUPUL SCOLAR GHERLA,,,,0
47.8100815,25.8208822,2699831180,LICEUL TEHNOLOGIC VASILE GHERASIM,,,,149307
45.4431619,28.548428,2781758986,FAST TRACK KIDS,,10bis,Strada Colonel Nicolae Holban,0
44.6293916,28.4556144,2795793135,,,,Strada Fabricii,61425
47.7379857,26.6746902,2795943519,SCOALA SFANTUL NICOLAE,,20,Strada AS Puskin,35740
46.7794004,23.5874088,2853828361,COLEGIUL TECHNIC ANA ASLAN,,52,Strada Horea,54984
44.4094509,26.1282057,2866042494,SCOALA METROPOLITANA ACADEMIA ROMANA PENTRU COPII,,63 71,Strada esarfei,179169
44.7628603,26.5293497,2877878133,,,,,103979
44.7622928,26.5287969,2877878137,,,,,103979
44.7617558,26.5294782,2877878139,SCOALA GENERALA CLASELE I VIII JILAVELE,,,,103979
44.8231273,22.7478464,2879904606,SCOALA GENERALA CU CLASELE I IV DALBOCITA,,,,112307
44.4465659,26.691735,2886624949,SCOALA GIMNAZIALA URUGUAY,,31,Strada Bihor,0
47.6169734,26.8508275,2898735287,,,,,36578
45.3312874,23.1263949,2901765396,SCOALA GENERALA NR 2,,,,87148
47.5680912,26.1905897,2903352087,SCOALA GENERALA LITENI MOARA,,,,149469
44.3222051,25.9049765,2918314857,,,,,104145
44.3421356,25.9426587,2918332922,SCOALA GENERALA CORNETU,,,,102222
44.1608519,24.5337955,2918455187,,,,,125631
45.831406,24.2580635,2923137062,GRADINITA CU PROGRAM NORMAL SLATIOARELE,,4,Strada Scolii,0
44.9371078,25.5301332,2926142714,,,,,65440
44.1385262,25.3169997,2927610488,,,,,153534
44.1410042,25.3177257,2927610489,,,,,153534
46.5223475,21.5186874,2949733722,,,,,9468
46.5156735,21.5107856,2949733726,,,,,9468
46.5219784,21.5120677,2949733727,,,,,9468
46.5216831,21.5272383,2949733730,,,,,9468
47.7796418,22.8921606,2957018767,SCOALA GIMNAZIALA LUCIAN BLAGA SATU MARE,,51 53,Strada Ion Vidu,136492
47.7790175,22.890349,2957020596,SCOALA ION CREANGA SATU MARE,,6,Strada Somesului,136492
46.1810814,21.3268649,3003901991,,,,,9271
45.247242,28.1340307,3014323836,SCOALA GENERALA GHEORGHE BANEA,,30,Strada Florilor,159749
45.3052353,24.6522278,3037391894,SCOALA GENERALA CORBENI,,,,15750
44.4461898,26.948893,3053046625,,,,,0
46.7722238,23.5876933,3076743833,SCOALA GIMNAZIALA REFORMATA TALENTUM,,2,Strada Victor Deleu,54984
46.542382,23.889031,3080191233,SCOALA PAVEL DAN,,,,55366
46.546063,23.883545,3080199033,,,,,55366
46.536743,23.886728,3081888333,,,,,55366
45.2644395,25.405097,3086246737,COLEGIUL NATIONAL DINICU GOLESCU,,,,0
45.2710125,25.497633,3086254795,LICEUL DAN BARBILIAN,,,,0
45.2723838,25.437711,3088884546,SCOALA GIMNAZIALA OPREA D IORGULESCU,,,,0
45.2762046,25.479024,3090235571,COLEGIUL TEHNIC CAMPULUNG,,,Strada Negru Voda,0
45.274974,25.485569,3090237774,SCOALA GIMNAZIALA NANU MUSCEL,,,,0
44.8001166,22.6056749,3091568258,SCOALA GIMNAZIALA GODEANU,,,,111827
44.7784045,26.6599247,3092002236,,,,,100727
44.9528113,26.7021795,3092002247,,,,,47809
44.8294504,26.8023257,3118032501,SCOALA GENERALA,,,,46929
44.8416324,24.8733223,3131452345,COLEGIUL TEHNIC DIMITRIE DIMA,,,,13178
43.7489401,24.8734204,3202384083,,,,,151692
43.7517592,24.8716448,3202384084,,,,,151692
43.7527931,24.8822967,3204186261,,,,,151692
44.3214351,23.7897982,3228663321,,,,,69919
45.8082374,23.7306674,3248229761,,,,,145284
45.8091386,23.7284708,3248229762,,,,,145284
44.5220622,26.759057,3309157748,LYCEE FRANCAIS DE NOAILLES,,,,0
46.697895,26.1607459,3318238873,,,,,0
45.5621467,25.3272569,3321168807,SCOALA GENERALA NR 3,,115,Strada Mitropolit Ion Metianu,40508
45.856496,22.9538042,3327413890,SCOALA GENERALA SANTUHALM ,,,,86703
44.450634,26.761408,3364637198,SCOALA DE MUZICA SI ARTE PLASTICE 1,,,,0
45.1789833,28.7879544,3369959300,SCOALA GENERALA NR 10,,,,159623
45.1888378,28.778469,3369983009,GRUP SCOLAR ANGHEL SALIGNY,,,,159623
46.9093866,23.8110308,3373334977,,,,,56229
47.5678302,26.617621,3407428782,,,,,0
45.6598269,25.5812915,3457117393,COLEGIUL ECONOMIC ANDREI BARSEANU,,198,Strada Lunga,40205
44.44716,26.929433,3459239893,SCOALA GIMNAZIALA I H RADULESCU GRADINITA,,,,93389
45.6383375,25.5839278,3469583641,COLEGIUL NATIONAL ANDREI SAGUNA,,,,40205
44.8232477,22.9342552,3486178598,,,,,79638
44.4344194,26.1593905,3495740723,GRADINITA CU PROGRAM NORMAL NR 147,,,,179150
45.4449578,25.5627843,3500596458,LICEUL TEORETIC AZUGA,,,,130963
46.8092267,24.5204429,3512376520,,,,,116233
46.3617836,23.469646,3587564101,SCOALA GENERALA CAMPENI,,,,0
46.6438868,27.5955566,3622919058,SCOALA MIHAI EMINESCU LAZA,,,,164605
45.6803438,24.3429158,3623186053,SCOALA RACOVITA,,,,145364
45.1055836,24.3837248,3629811330,SCOALA GIMNAZIALA NR 5,,,,167598
45.6394613,25.5833534,3637225136,INSPECTORATUL SCOLAR JUDETEAN,,inspect sc jud,Strada Constantin Brâncoveanu,40205
45.8349352,24.9561785,3641391424,LICEUL TEHNOLOGIC DR IOAN SENCHEA,,,,40287
45.352341,25.875867,3650903457,SCOALA GENERALA CU CLASELE 1 8,,,,0
45.8525867,24.980648,3661033426,SCOALA GIMNAZIALA OVID DENSUSIANU,,,,40287
45.3291474,24.6068873,3693745977,SCOALA GHEORGHE BADESCU,,,,14067
45.3063987,24.6565307,3695669741,GRUPUL SCOLAR CORBENI,,,,15750
45.1626042,24.6728424,3695918760,SCOALA GENERALA REGINA MARIA,,,,13631
47.481834,25.2766787,3730926419,SCOALA GIMNAZIALA,,62,Strada Principala,149165
47.4803565,25.2776767,3730985133,LUDOTECA FURNICA,,,,149165
47.5891147,27.164042,3742899333,SCOALA CU CLASELE I IV COBICENI,,,DJ 282,37743
47.5992411,27.1424193,3743081046,SCOALA GIMNAZIALA DAN IORDACHESCU,,,Strada  Principala,37743
44.1624683,28.6319377,3757308952,SCOALA SI GRADINITA ,Sfintii Martiri Brâncoveni,,,60428
44.4335943,26.1063525,3757867770,CENTRUL EDUCATIONAL IBSEN,,8,Strada General Florescu Ion Emanoil,179169
46.3042671,26.656985,3761497529,ISKOLA,,,,0
45.1468235,26.8091332,3769089258,SCOALA GEORGE EMIL PALADE,,8,Bulevardul Spiru Haret,44827
44.3931716,26.805958,3770362757,SCOALA CU CLASELE I VIII RUT,,9 13,Strada Lacul Bucura,0
46.5664718,27.9373886,3788717039,SCOALA CU CLASELE I IV ZGURA,,,,165121
45.8414467,23.1930435,3792253340,SCOALA GENERALA NR 2,,,,87647
47.741772,26.6585804,3800110926,LICEUL STEFAN LUCHIAN,,,,35740
45.3030357,25.7216137,3817825588,,,,,136116
44.178084,28.6322721,3831609882,LICEUL CU PROGRAM SPORTIV NICOLAE ROTARU,,2,Strada Ion Corvin,60428
44.4410789,26.727162,3880781128,CLUB SPORTIV NR 5,,,,0
46.5800473,25.7905446,3921620476,SCOALA GIMNAZIALA MARTON ARON,,1681,Alszeg,85779
44.443715,25.7154634,3932043716,SCOALA GENERALA CU CLASELE 1 8,,,,101225
44.2859078,26.4411218,3985659637,SCOALA GENERALA CU CLASELE I IV,,,,105838
47.7901172,24.2463109,4010910125,SCOALA GIMNAZIALA LEORDINA,,,,108259
45.1752112,23.6633317,4033068622,SCOALA GENERALA NR 1 NOVACI,,,,78267
45.1679083,23.8053091,4034202168,SCOALA GENERALA POLOVRAGI,,,,81399
47.6108065,25.6449127,4041729045,SCOALA GENERALA,,,,148738
44.8598443,24.8719715,4046535745,COLEGIUL TEHNIC ARMAND CALINESCU,,,,13178
46.5677491,26.9167133,4061045982,SCOALA GIMNAZIALA PLATON,,,,20304
44.5129047,26.1350591,4086292831,MARK TWAIN,,,,179560
44.5749419,25.9392894,4090416887,CENTRU DE ARTE MARTIALE,,,,100585
47.4763047,22.5866253,4093559536,,,,,136651
47.4770545,22.5834941,4095853381,SCOALA GIMNAZIALA,,,,136651
47.556169,22.3953343,4096956089,COLEGIUL TEHNIC ALEXANDRU ROMAN,,4,Strada Ciocârliei,0
46.2265201,27.6735327,4108991391,ASOCIATIA ECOLOGICA PROEDUC,,9,,161801
46.7685209,23.5879351,4128070491,LICEUL GRECO CATOLIC INOCENTIU MICU KLEIN,,,,54984
43.9238392,25.860827,4135412507,SCOALA GENERALA NR 1 BOGDANA,,,,0
46.8685713,23.4212606,4152658301,,,,,59595
43.9745401,25.9642733,4177382625,,,,,102918
46.3632681,25.8108603,4190137148,LICEUL TEHNOLOGIC SZEKELY KAROLY,,31,Strada Iancu de Hunedoara,83339
46.969995,25.72757,4190180914,SCOALA GENERALA CLASELE I IV NR 5,,,,86142
46.3769592,23.1013568,4191148833,SCOALA GIMNAZIALA BISTRA,,,,3048
46.7828718,23.6078407,4193927389,ROYAL SCHOOL IN TRANSILVANIA,,,,54984
44.9616146,26.3533013,4207169881,SCOALA INOTESTI,,,,132770
46.1709427,24.3808837,4208992693,LICEUL TECNOLOGICA AUTOMECANICA,,,,143628
46.6756934,23.4563097,4212225293,SCOALA GIMNAZIALA BORBELY JOSEF,,,,59336
46.4867041,24.958422,4217102625,SCOALA GENERALA NR 1 LUDUS,,,,0
47.9170826,23.9209699,4230119995,SCOALA NR 5,,,Strada Bogdan Voda,106568
46.4708198,26.6847641,4231304691,,,,,21347
45.7381188,21.2322393,4241381090,,,,,155252
46.4856632,26.4953306,4245861689,,,,,20885
44.4082983,26.2113453,4264728993,SPECTRUM LICEUL TEORETIC INTERNATIONAL DE INFORMATICA,,9,Strada Balta Albina,179169
47.5355234,26.276732,4265601590,SPINARIE,,,,0
47.2709619,22.3374873,4266782527,TAUTEU,,,,31663
44.9598861,26.64591,4270947091,SCOALA SFANTUL ANDREI," nr 24""",,,0
47.1692671,27.5938428,4289480889,SCOALA GIMNAZIALA INTERNATIONALA SPECTRUM IASI,,12 14,Bulevardul CA Rosetti,95079
44.4923288,26.1948568,4290979144,COMPLEX RIN TIN TIN,,,,179560
47.4113861,23.1835808,4296398893,SCOALA ADY ENDRE,,,,139759
47.4108385,23.1611459,4296405793,,,,,139759
46.3922265,25.3083855,4298743993,PETOFI SANDOR ALTALANOS,,,,84273
44.2511122,28.5676497,4298905239,SCOALA NR 2,,,,60696
44.9436457,25.455592,4307008995,UNIVERSITATEA VALAHIA DIN TARGOVISTE,,13,Aleea Sinaia,65351
46.3614548,25.8048032,4309206895,SCOALA POPULARA DE ARTA,,,,83339
46.3621414,25.8039235,4309206903,CENTRUL EDUCATIONAL SPEKTRUM,,,,83339
45.5866595,25.4559634,4309636155,SCOALA GIMNAZIALA NR 3,,,,40376
45.6530165,27.2535465,4313183889,LICEU NR 5,,,Strada Alexandru Ioan Cuza,176775
45.3775034,27.106738,4319747694,SCOALA PLEVNA CU CLASELE I VIII,,,,0
45.1522621,26.8150376,4320782893,SCOALA NR 1,,,,44827
45.1577597,26.8216822,4320800890,SCOALA NR 11,,,,44827
44.9787644,25.6463571,4324955197,LICEUL INDUSTRIAL NR 1 IL CARAGIALE,,,,65850
46.9590986,27.9168384,4325613690,SCOALA BAZGA,,,,98694
46.569833,26.9160277,4332189090,LICEUL ECONOMIC ION GHICA BACAU,,,Strada 9 Mai,20304
47.8703731,25.6107771,4332248657,SCOALA GENERALA PUTNA,,,,150052
47.1966805,23.2324906,4345636947,MARCUS AURELIUS,,,,140681
45.1666089,28.7952998,4346076854,LICEUL PEDAGOGIC,,,Strada Comertului,159623
45.1665803,28.8008952,4346093810,SCOALA GENERALA NR 4,,,Strada ILCaragiale,159623
46.6295943,26.8671013,4348237589,,,314 B,Strada Pajistei,20340
45.850773,26.1810517,4358944079,,,,,63535
45.8465207,26.1749846,4358944155,,,,,63535
45.726044,27.8876123,4360136491,SCOALA GIMNAZIALA GROPENI,,,,76148
44.499421,26.1354929,4363436376,,,,,179560
47.1154414,27.4356225,4381035991,SCOALA BOGDANESTI,,,,97535
47.1415066,23.8784846,4385212189,COLEGIUL NATIONAL ANDREI MURESANU,,10,Strada 1 Mai,55017
47.986685,23.7712159,4386649079,,,,,107724
45.6405327,25.5878998,4392343890,,,,,40205
47.5923985,26.5947781,4394767197,,,,,39890
44.4183101,26.1350047,4398792090,SCOALA PRIMARA JUST 4 KIDS,,,,179169
45.4089671,27.6291132,4400984189,LICEUL MATEI BASARAB,,,,43572
45.9132289,23.2726134,4409606299,,,180,Strada Aurel Vlaicu,89589
45.5123872,22.95327,4410570209,SCOALA PRIMARA CU CLASELE I VIII,,,,91125
44.190848,25.1967347,4411273114,SCOALA PRIMARA VARTOAPELE,,,,154941
47.7096049,25.6115873,4412023991,,,,,151004
45.1451322,23.9923354,4413078595,LICEUL CONSTANTIN BRANCOVEANU HOREZU,,,,168050
47.2387496,25.3286299,4418601398,GRADINITA,,,Neagra Sarului,150454
45.17551,25.7778064,4427688095,,,,,132422
47.7899152,22.8721865,4430774391,SCOALA GIMNAZIALA CONSTANTIN BRANCOVEANU,,6,Strada Constantin Brâncoveanu,136492
44.1698211,26.6072839,4437372996,SCOALA GIMANZIALA NR 2 MITRENI,,,,100647
47.8609314,26.3024433,4437804804,,,,,40050
47.8464571,26.3285305,4437804808,,,,,39701
44.4277788,26.1699828,4442601698,LICEUL TEORETIC AL I CUZA,,,,179169
47.835411,26.2926125,4448987590,,,,,151353
47.930902,23.8891156,4462309490,SCOALA ION MIHALY DE APSA NR 3,,,,106568
47.9301287,23.9020992,4463223395,SCOALA GIMNAZIALA NR 10,,,,106568
44.735341,24.249399,4467317003,SCOALA GENERALA GPN,,,,172466
45.6409185,25.5888176,4475365990,LICEUL TEORETIC JOHANNES HONTERUS,,,,40205
45.650684,25.6127909,4483264590,SCOALA PRIMARA LIBERA WALDORF SOPHIA,,6,Strada PaltiniS,40205
47.7377343,26.6589392,4504291189,PALATUL COPIILOR BOTOSANI,,32,Strada Mihail Kogalniceanu,35740
45.7765567,25.803204,4510130089,,,,,64247
44.3777522,26.106434,4517779589,GRADINITA NR 167,,1,Strada Izvorul Oltului,179178
47.8427189,25.9233107,4523991169,SCOALA GENERALA NR 5 RADAUTI,,,,146637
46.7764821,23.5977773,4541970689,SCOALA DE MUZICA POPULARA,,,Strada Paris,54984
44.8667467,27.9399246,4568218364,SCOALA CU CLASELE I VI BANDOIU,,,,43518
44.8665086,27.9392943,4568226818,OLD SCHOOL,,,,43518
47.1652735,27.5647948,4571361890,,,,,95079
44.4217202,26.698484,4572890394,SCOALA NR 115,,,,0
46.3063957,22.5240644,4573224443,SCOALA DIN VARFURILE,,,,12698
46.1749859,21.3188875,4576290092,UNIVERSITATEA AUREL VLAICU,,,,9271
47.2241645,22.288336,4579309689,,,,,0
47.2244761,22.277192,4579309989,,,,,0
44.4539458,26.790097,4586018789,,,,,104378
44.6365568,22.6526997,4587648889,INTERNATUL LICEULUI GHEORGHE TITEICA,,,,109782
44.6360905,22.6528098,4587648989,INTERNATUL LICEULUI PEDAGOGIC STEFAN ODOBLEJA,,,,109782
47.1626643,22.874842,4601375503,LICEUL TECHNOLOGIC CSEREY GOGA,,,,140636
47.5530474,26.880753,4603496689,IOAN STURZA,,2,Strada 1907,37299
46.4670635,26.5363421,4616431580,SCOALA GIMNAZIALA GENERALA NICOLAE SOVA,,,,24640
44.4442665,26.518364,4619676491,CASA CORPULUI DIDACTIC,,315 A,Splaiul Independentei,0
46.5403721,23.7477435,4637514991,SCOALA MIHAI VITEAZUL,,,,55286
46.4513697,25.45945,4639718906,SCOALA GENERALA JOSIKA MIKLOS,,,,0
45.1059038,24.3645969,4646135290,GRADINITA NR 1,,,,167482
44.4185299,26.1148159,4661191989,,,35,Bulevardul Nerva Traian,179169
45.2245526,26.558504,4679535000,SCOALA GENERALA PLATON MOCANU,,,,0
47.7415402,26.6579705,4688319189,CASA CORPULUI DIDACTIC,,,,35740
46.3793104,23.2801884,4693443519,,,,Piata Baii,2924
46.3823851,23.2869229,4695932428,,,,,2924
44.528058,24.2687936,4696926016,SCOALA GIMNAZIALA,,,,129148
45.665032,25.2503074,4701166990,SCOALA GENERALA VOINESTI,,,,0
44.7940946,24.228293,4703973802,SCOALA GIMNAZIALA,,,,171888
44.9990732,24.1850766,4704020910,SCOALA GIMNAZIALA,,,,169903
45.1077885,24.1956203,4704037491,SCOALA GENERALA ION MINULESCU,,,,168979
45.753284,24.2186254,4704037492,SCOALA GIMNAZIALA GOVORA SAT,,,,0
44.9962405,24.4411194,4704040393,SCOALA GIMNAZIALA NICOLAE BALCESCU,,,,171637
45.2397562,24.3410291,4704041493,SCOALA GENERALA,,,,167918
45.138899,24.6768458,4704048694,SCOALA CU CLASELE I VIII CAROL II,,,,13631
45.1191407,24.164671,4704052590,SCOALA GIMNAZIALA ION VOICULESCU,,,,173249
46.1668591,21.5940551,4705188492,SCOALA PRIMARA CUVIN,,,,10890
45.1075973,24.3881337,4705401190,SCOALA GENERALA RAMNICU VALCEA GORANU,,,,167598
45.3925,24.2536321,4705401193,SCOALA GIMNAZIALA MIHAESTI,,,,0
45.113229,24.2448486,4705401194,,,,,0
45.1832545,24.3652776,4705401292,SCOALA SPECIALA GURA VAII,,,,168924
45.966414,24.3610567,4705442389,SCOALA GIMNAZIALA NR 4,,,,0
44.493895,25.637829,4706145591,SCOALA GENERALA IZVORU I VIII,,,,0
44.392186,25.883334,4706355148,GRUPUL SCOLAR PERETU,,,,0
44.9401539,24.7055985,4706380297,SCOALA GENERALA DRAGANU,,,,16515
45.6107942,22.9497762,4706389699,SCOALA OVID DENSUSIANU,,,,87585
44.9399595,24.7049892,4706390989,SCOALA GIMNAZIALA VASILE ALECSANDRI,,,,16515
45.1694552,24.3666085,4706467621,,,,,168933
45.947939,24.3692946,4706472540,LICEUL TEHNOLOGIC FERDINAND I,,,,0
45.1633407,24.1177075,4711203592,SCOALA CU CLASELE I VIII BARBATESTI,,,DJ646E,168577
45.1627143,24.116261,4711203593,,,,,168568
47.7049367,22.4965228,4712500822,FENYI ISTVAN ALTALANOS ISKOLA,,,Fő Utca,136562
45.1448698,23.9917827,4714993093,SALA DE SPORT,,,,168050
44.136399,24.8246408,4715993432,,,,,0
44.129375,24.8244745,4715994956,,,,,0
